{
  "type": "FeatureCollection",
  "crs": {
    "type": "name",
    "properties": {
      "name": "urn:ogc:def:crs:OGC:1.3:CRS84"
    }
  },
  "features": [
    {
      "type": "Feature",
      "properties": {
        "fid": 1,
        "Name": "Nepal",
        "group": 1
      },
      "geometry": {
        "type": "Point",
        "coordinates": [
          85.28409738041005,
          27.67473423262923
        ]
      }
    },
    {
      "type": "Feature",
      "properties": {
        "fid": 2,
        "Name": "New Zealand",
        "group": 1
      },
      "geometry": {
        "type": "Point",
        "coordinates": [
          173.460777334852,
          -41.09394307381317
        ]
      }
    },
    {
      "type": "Feature",
      "properties": {
        "fid": 3,
        "Name": "Namibia",
        "group": 1
      },
      "geometry": {
        "type": "Point",
        "coordinates": [
          16.319547266514892,
          -22.38684501328272
        ]
      }
    },
    {
      "type": "Feature",
      "properties": {
        "fid": 4,
        "Name": "Marrakesch",
        "group": 1
      },
      "geometry": {
        "type": "Point",
        "coordinates": [
          -7.984873291571657,
          31.694137734676236
        ]
      }
    },
    {
      "type": "Feature",
      "properties": {
        "fid": 5,
        "Name": "Island",
        "group": 1
      },
      "geometry": {
        "type": "Point",
        "coordinates": [
          -18.949779328018135,
          64.99140593707378
        ]
      }
    },
    {
      "type": "Feature",
      "properties": {
        "fid": 6,
        "Name": "Indonesia / Bali",
        "group": 1
      },
      "geometry": {
        "type": "Point",
        "coordinates": [
          115.13151338268807,
          -8.378784790054926
        ]
      }
    },
    {
      "type": "Feature",
      "properties": {
        "fid": 7,
        "Name": "Australia",
        "group": 1
      },
      "geometry": {
        "type": "Point",
        "coordinates": [
          145.51035734624162,
          -31.922803458711314
        ]
      }
    },
    {
      "type": "Feature",
      "properties": {
        "fid": 8,
        "Name": "Patagonia",
        "group": 1
      },
      "geometry": {
        "type": "Point",
        "coordinates": [
          -69.96686361047827,
          -54.553674337575536
        ]
      }
    },
    {
      "type": "Feature",
      "properties": {
        "fid": 9,
        "Name": "Bolivia",
        "group": 1
      },
      "geometry": {
        "type": "Point",
        "coordinates": [
          -64.1547907175398,
          -17.609676855508834
        ]
      }
    },
    {
      "type": "Feature",
      "properties": {
        "fid": 10,
        "Name": "Kuba",
        "group": 1
      },
      "geometry": {
        "type": "Point",
        "coordinates": [
          -79.54602078587685,
          22.31218559846822
        ]
      }
    },
    {
      "type": "Feature",
      "properties": {
        "fid": 11,
        "Name": "China",
        "group": 1
      },
      "geometry": {
        "type": "Point",
        "coordinates": [
          114.21665005694781,
          28.33398991637751
        ]
      }
    },
    {
      "type": "Feature",
      "properties": {
        "fid": 12,
        "Name": "Vietnam",
        "group": 1
      },
      "geometry": {
        "type": "Point",
        "coordinates": [
          108.35076167425983,
          14.109568696458116
        ]
      }
    }
  ]
}
